[
  {
    "business_id": "1SWheh84yJXfytovILXOAQ",
    "name": "Arizona Biltmore Golf Club",
    "address": "2818 E Camino Acequia Drive",
    "city": "Phoenix",
    "state": "AZ",
    "postal_code": "85016",
    "latitude": 33.5221425,
    "longitude": -112.0184807,
    "stars": 3.0,
    "review_count": 5,
    "is_open": 0,
    "attributes": {
      "GoodForKids": "False"
    },
    "categories": "Golf, Active Life",
    "hours": null
  },
  {
    "business_id": "QXAEGFB4oINsVuTFxEYKFQ",
    "name": "Emerald Chinese Restaurant",
    "address": "30 Eglinton Avenue W",
    "city": "Mississauga",
    "state": "ON",
    "postal_code": "L5R 3E7",
    "latitude": 43.6054989743,
    "longitude": -79.652288909,
    "stars": 2.5,
    "review_count": 128,
    "is_open": 1,
    "attributes": {
      "RestaurantsReservations": "True",
      "GoodForMeal": "{'dessert': False, 'latenight': False, 'lunch': True, 'dinner': True, 'brunch': False, 'breakfast': False}",
      "BusinessParking": "{'garage': False, 'street': False, 'validated': False, 'lot': True, 'valet': False}",
      "Caters": "True",
      "NoiseLevel": "u'loud'",
      "RestaurantsTableService": "True",
      "RestaurantsTakeOut": "True",
      "RestaurantsPriceRange2": "2",
      "OutdoorSeating": "False",
      "BikeParking": "False",
      "Ambience": "{'romantic': False, 'intimate': False, 'classy': False, 'hipster': False, 'divey': False, 'touristy': False, 'trendy': False, 'upscale': False, 'casual': True}",
      "HasTV": "False",
      "WiFi": "u'no'",
      "GoodForKids": "True",
      "Alcohol": "u'full_bar'",
      "RestaurantsAttire": "u'casual'",
      "RestaurantsGoodForGroups": "True",
      "RestaurantsDelivery": "False"
    },
    "categories": "Specialty Food, Restaurants, Dim Sum, Imported Food, Food, Chinese, Ethnic Food, Seafood",
    "hours": {
      "Monday": "9:0-0:0",
      "Tuesday": "9:0-0:0",
      "Wednesday": "9:0-0:0",
      "Thursday": "9:0-0:0",
      "Friday": "9:0-1:0",
      "Saturday": "9:0-1:0",
      "Sunday": "9:0-0:0"
    }
  },
  {
    "business_id": "gnKjwL_1w79qoiV3IC_xQQ",
    "name": "Musashi Japanese Restaurant",
    "address": "10110 Johnston Rd, Ste 15",
    "city": "Charlotte",
    "state": "NC",
    "postal_code": "28210",
    "latitude": 35.092564,
    "longitude": -80.859132,
    "stars": 4.0,
    "review_count": 170,
    "is_open": 1,
    "attributes": {
      "GoodForKids": "True",
      "NoiseLevel": "u'average'",
      "RestaurantsDelivery": "False",
      "GoodForMeal": "{'dessert': False, 'latenight': False, 'lunch': True, 'dinner': True, 'brunch': False, 'breakfast': False}",
      "Alcohol": "u'beer_and_wine'",
      "Caters": "False",
      "WiFi": "u'no'",
      "RestaurantsTakeOut": "True",
      "BusinessAcceptsCreditCards": "True",
      "Ambience": "{'romantic': False, 'intimate': False, 'touristy': False, 'hipster': False, 'divey': False, 'classy': False, 'trendy': False, 'upscale': False, 'casual': True}",
      "BusinessParking": "{'garage': False, 'street': False, 'validated': False, 'lot': True, 'valet': False}",
      "RestaurantsTableService": "True",
      "RestaurantsGoodForGroups": "True",
      "OutdoorSeating": "False",
      "HasTV": "True",
      "BikeParking": "True",
      "RestaurantsReservations": "True",
      "RestaurantsPriceRange2": "2",
      "RestaurantsAttire": "'casual'"
    },
    "categories": "Sushi Bars, Restaurants, Japanese",
    "hours": {
      "Monday": "17:30-21:30",
      "Wednesday": "17:30-21:30",
      "Thursday": "17:30-21:30",
      "Friday": "17:30-22:0",
      "Saturday": "17:30-22:0",
      "Sunday": "17:30-21:0"
    }
  },
  {
    "business_id": "xvX2CttrVhyG2z1dFg_0xw",
    "name": "Farmers Insurance - Paul Lorenz",
    "address": "15655 W Roosevelt St, Ste 237",
    "city": "Goodyear",
    "state": "AZ",
    "postal_code": "85338",
    "latitude": 33.4556129678,
    "longitude": -112.3955963552,
    "stars": 5.0,
    "review_count": 3,
    "is_open": 1,
    "attributes": null,
    "categories": "Insurance, Financial Services",
    "hours": {
      "Monday": "8:0-17:0",
      "Tuesday": "8:0-17:0",
      "Wednesday": "8:0-17:0",
      "Thursday": "8:0-17:0",
      "Friday": "8:0-17:0"
    }
  },
  {
    "business_id": "HhyxOkGAM07SRYtlQ4wMFQ",
    "name": "Queen City Plumbing",
    "address": "4209 Stuart Andrew Blvd, Ste F",
    "city": "Charlotte",
    "state": "NC",
    "postal_code": "28217",
    "latitude": 35.1900119,
    "longitude": -80.8872232,
    "stars": 4.0,
    "review_count": 4,
    "is_open": 1,
    "attributes": {
      "BusinessAcceptsBitcoin": "False",
      "ByAppointmentOnly": "True",
      "BusinessAcceptsCreditCards": "True"
    },
    "categories": "Plumbing, Shopping, Local Services, Home Services, Kitchen & Bath, Home & Garden, Water Heater Installation\/Repair",
    "hours": {
      "Monday": "7:0-23:0",
      "Tuesday": "7:0-23:0",
      "Wednesday": "7:0-23:0",
      "Thursday": "7:0-23:0",
      "Friday": "7:0-23:0",
      "Saturday": "7:0-23:0",
      "Sunday": "7:0-23:0"
    }
  },
  {
    "business_id": "68dUKd8_8liJ7in4aWOSEA",
    "name": "The UPS Store",
    "address": "Credit Valley Town Plaza, F2 - 6045 Creditview Rd",
    "city": "Mississauga",
    "state": "ON",
    "postal_code": "L5V 0B1",
    "latitude": 43.5994753,
    "longitude": -79.7115835,
    "stars": 2.5,
    "review_count": 3,
    "is_open": 1,
    "attributes": {
      "BusinessParking": "{'garage': False, 'street': False, 'validated': False, 'lot': False, 'valet': False}",
      "RestaurantsPriceRange2": "2"
    },
    "categories": "Shipping Centers, Couriers & Delivery Services, Local Services, Printing Services",
    "hours": {
      "Monday": "9:0-19:0",
      "Tuesday": "9:0-20:0",
      "Wednesday": "9:0-20:0",
      "Thursday": "9:0-20:0",
      "Friday": "9:0-19:0",
      "Saturday": "10:0-16:0"
    }
  },
  {
    "business_id": "5JucpCfHZltJh5r1JabjDg",
    "name": "Edgeworxx Studio",
    "address": "20 Douglas Woods Drive Southeast",
    "city": "Calgary",
    "state": "AB",
    "postal_code": "T2Z 1K4",
    "latitude": 50.9436456,
    "longitude": -114.0018283,
    "stars": 3.5,
    "review_count": 7,
    "is_open": 1,
    "attributes": {
      "RestaurantsPriceRange2": "2",
      "BusinessParking": "{'garage': False, 'street': False, 'validated': False, 'lot': True, 'valet': False}",
      "ByAppointmentOnly": "True"
    },
    "categories": "Beauty & Spas, Hair Salons",
    "hours": null
  },
  {
    "business_id": "gbQN7vr_caG_A1ugSmGhWg",
    "name": "Supercuts",
    "address": "4545 E Tropicana Rd Ste 8, Tropicana",
    "city": "Las Vegas",
    "state": "NV",
    "postal_code": "89121",
    "latitude": 36.099872,
    "longitude": -115.074574,
    "stars": 3.5,
    "review_count": 3,
    "is_open": 1,
    "attributes": {
      "RestaurantsPriceRange2": "3",
      "GoodForKids": "True",
      "BusinessAcceptsCreditCards": "True",
      "ByAppointmentOnly": "False",
      "BikeParking": "False"
    },
    "categories": "Hair Salons, Hair Stylists, Barbers, Men's Hair Salons, Cosmetics & Beauty Supply, Shopping, Beauty & Spas",
    "hours": {
      "Monday": "10:0-19:0",
      "Tuesday": "10:0-19:0",
      "Wednesday": "10:0-19:0",
      "Thursday": "10:0-19:0",
      "Friday": "10:0-19:0",
      "Saturday": "10:0-19:0",
      "Sunday": "10:0-18:0"
    }
  },
  {
    "business_id": "Y6iyemLX_oylRpnr38vgMA",
    "name": "Vita Bella Fine Day Spa",
    "address": "5940 W Union Hills Dr",
    "city": "Glendale",
    "state": "AZ",
    "postal_code": "85308",
    "latitude": 33.6548146,
    "longitude": -112.1885676,
    "stars": 5.0,
    "review_count": 8,
    "is_open": 0,
    "attributes": {
      "RestaurantsPriceRange2": "2",
      "ByAppointmentOnly": "True",
      "BusinessParking": "{'garage': False, 'street': False, 'validated': False, 'lot': True, 'valet': False}",
      "BusinessAcceptsCreditCards": "True",
      "BikeParking": "False"
    },
    "categories": "Nail Salons, Beauty & Spas, Day Spas",
    "hours": {
      "Tuesday": "12:0-18:0",
      "Wednesday": "10:0-18:0",
      "Thursday": "12:0-18:0",
      "Friday": "10:0-17:0",
      "Saturday": "10:0-14:0"
    }
  },
  {
    "business_id": "4GBVPIYRvzGh4K4TkRQ_rw",
    "name": "Options Salon & Spa",
    "address": "21689 Lorain Rd",
    "city": "Fairview Park",
    "state": "OH",
    "postal_code": "44126",
    "latitude": 41.4408252653,
    "longitude": -81.8540965503,
    "stars": 4.5,
    "review_count": 8,
    "is_open": 1,
    "attributes": {
      "ByAppointmentOnly": "False",
      "BusinessAcceptsCreditCards": "True",
      "RestaurantsPriceRange2": "2",
      "BusinessParking": "{'garage': False, 'street': False, 'validated': False, 'lot': True, 'valet': False}",
      "AcceptsInsurance": "False"
    },
    "categories": "Beauty & Spas, Nail Salons, Day Spas, Massage",
    "hours": {
      "Tuesday": "9:0-21:0",
      "Wednesday": "9:0-21:0",
      "Thursday": "9:0-21:0",
      "Friday": "9:0-19:0",
      "Saturday": "9:0-16:0"
    }
  },
  {
    "business_id": "fcXOEZdXYeZqnQ3lGlOXmg",
    "name": "Nucleus Information Service",
    "address": "1210 8th Street SW, Unit 220",
    "city": "Calgary",
    "state": "AB",
    "postal_code": "T2R 1L3",
    "latitude": 51.041771,
    "longitude": -114.081109,
    "stars": 2.0,
    "review_count": 5,
    "is_open": 1,
    "attributes": {
      "BikeParking": "False",
      "ByAppointmentOnly": "False",
      "BusinessParking": "{'garage': False, 'street': True, 'validated': False, 'lot': False, 'valet': False}",
      "RestaurantsPriceRange2": "1"
    },
    "categories": "Local Services, Professional Services, Computers, Shopping, Home Services, IT Services & Computer Repair, Internet Service Providers, Web Design",
    "hours": {
      "Monday": "9:0-17:0",
      "Tuesday": "9:0-17:0",
      "Wednesday": "9:0-17:0",
      "Thursday": "9:0-17:0",
      "Friday": "9:0-17:0"
    }
  },
  {
    "business_id": "1Dfx3zM-rW4n-31KeC8sJg",
    "name": "Taco Bell",
    "address": "2450 E Indian School Rd",
    "city": "Phoenix",
    "state": "AZ",
    "postal_code": "85016",
    "latitude": 33.4951941,
    "longitude": -112.0285876,
    "stars": 3.0,
    "review_count": 18,
    "is_open": 1,
    "attributes": {
      "RestaurantsTakeOut": "True",
      "BusinessParking": "{'garage': False, 'street': False, 'validated': False, 'lot': False, 'valet': False}",
      "WiFi": "u'no'",
      "RestaurantsDelivery": "False",
      "OutdoorSeating": "False",
      "RestaurantsAttire": "u'casual'",
      "BusinessAcceptsCreditCards": "True",
      "RestaurantsGoodForGroups": "True",
      "RestaurantsReservations": "False",
      "HasTV": "False",
      "Ambience": "{'romantic': False, 'intimate': False, 'touristy': False, 'hipster': False, 'divey': False, 'classy': False, 'trendy': False, 'upscale': False, 'casual': False}",
      "Alcohol": "u'none'",
      "RestaurantsPriceRange2": "1",
      "GoodForKids": "True"
    },
    "categories": "Restaurants, Breakfast & Brunch, Mexican, Tacos, Tex-Mex, Fast Food",
    "hours": {
      "Monday": "7:0-0:0",
      "Tuesday": "7:0-0:0",
      "Wednesday": "7:0-0:0",
      "Thursday": "7:0-1:0",
      "Friday": "7:0-1:0",
      "Saturday": "7:0-1:0",
      "Sunday": "7:0-0:0"
    }
  },
  {
    "business_id": "5t3KVdMnFgAYmSl1wYLhmA",
    "name": "The Kilted Buffalo Langtree",
    "address": "119 Landings Dr, Ste 101",
    "city": "Mooresville",
    "state": "NC",
    "postal_code": "28117",
    "latitude": 35.5274098057,
    "longitude": -80.8680032061,
    "stars": 3.5,
    "review_count": 9,
    "is_open": 1,
    "attributes": {
      "BusinessParking": "{'garage': False, 'street': False, 'validated': False, 'lot': False, 'valet': False}",
      "Ambience": "{'touristy': False, 'hipster': False, 'romantic': False, 'divey': False, 'intimate': False, 'trendy': False, 'upscale': False, 'classy': False, 'casual': False}",
      "Music": "{'dj': False, 'background_music': False, 'no_music': False, 'jukebox': False, 'live': False, 'video': False, 'karaoke': False}",
      "BikeParking": "True",
      "OutdoorSeating": "True",
      "GoodForKids": "False",
      "NoiseLevel": "'average'",
      "RestaurantsGoodForGroups": "True",
      "GoodForDancing": "True",
      "CoatCheck": "False",
      "WiFi": "'free'",
      "RestaurantsPriceRange2": "1",
      "HappyHour": "True",
      "Alcohol": "'beer_and_wine'",
      "ByAppointmentOnly": "False",
      "HasTV": "True",
      "RestaurantsReservations": "True",
      "BusinessAcceptsCreditCards": "True",
      "BestNights": "{'monday': False, 'tuesday': False, 'friday': False, 'wednesday': False, 'thursday': True, 'sunday': False, 'saturday': True}"
    },
    "categories": "Bars, Nightlife, Pubs, Barbers, Beauty & Spas, Irish Pub",
    "hours": {
      "Monday": "10:0-1:0",
      "Tuesday": "10:0-1:0",
      "Wednesday": "10:0-1:0",
      "Thursday": "10:0-1:0",
      "Friday": "10:0-1:0",
      "Saturday": "10:0-1:0",
      "Sunday": "12:0-1:0"
    }
  },
  {
    "business_id": "fweCYi8FmbJXHCqLnwuk8w",
    "name": "Marco's Pizza",
    "address": "5981 Andrews Rd",
    "city": "Mentor-on-the-Lake",
    "state": "OH",
    "postal_code": "44060",
    "latitude": 41.70852,
    "longitude": -81.359556,
    "stars": 4.0,
    "review_count": 16,
    "is_open": 1,
    "attributes": {
      "RestaurantsPriceRange2": "2",
      "BusinessAcceptsCreditCards": "True",
      "GoodForKids": "True",
      "RestaurantsDelivery": "True",
      "Alcohol": "u'none'",
      "OutdoorSeating": "False",
      "RestaurantsGoodForGroups": "True",
      "RestaurantsTakeOut": "True",
      "RestaurantsReservations": "False",
      "BikeParking": "True",
      "RestaurantsAttire": "u'casual'",
      "Ambience": "None",
      "BusinessParking": "None"
    },
    "categories": "Italian, Restaurants, Pizza, Chicken Wings",
    "hours": {
      "Monday": "10:0-0:0",
      "Tuesday": "10:0-0:0",
      "Wednesday": "10:0-0:0",
      "Thursday": "10:0-0:0",
      "Friday": "10:0-1:0",
      "Saturday": "10:0-1:0",
      "Sunday": "10:0-0:0"
    }
  },
  {
    "business_id": "-K4gAv8_vjx8-2BxkVeRkA",
    "name": "Baby Cakes",
    "address": "4145 Erie St",
    "city": "Willoughby",
    "state": "OH",
    "postal_code": "44094",
    "latitude": 41.6398599,
    "longitude": -81.4063963,
    "stars": 3.0,
    "review_count": 7,
    "is_open": 1,
    "attributes": {
      "RestaurantsTakeOut": "True",
      "BusinessParking": "{'garage': False, 'street': False, 'validated': False, 'lot': False, 'valet': False}",
      "RestaurantsPriceRange2": "1",
      "BusinessAcceptsCreditCards": "True",
      "RestaurantsDelivery": "False"
    },
    "categories": "Bakeries, Food",
    "hours": {
      "Tuesday": "11:0-17:0",
      "Wednesday": "11:0-17:0",
      "Thursday": "11:0-20:0",
      "Friday": "11:0-17:0",
      "Saturday": "10:0-17:0"
    }
  },
  {
    "business_id": "A98xW4qb7vOTguggHFs7Ng",
    "name": "Hot Yoga Wellness",
    "address": "1455 16th Avenue",
    "city": "Richmond Hill",
    "state": "ON",
    "postal_code": "L4B 3G6",
    "latitude": 43.861502576,
    "longitude": -79.3884991854,
    "stars": 4.0,
    "review_count": 4,
    "is_open": 1,
    "attributes": {
      "ByAppointmentOnly": "False",
      "BikeParking": "True",
      "WheelchairAccessible": "False",
      "BusinessParking": "{'garage': False, 'street': False, 'validated': False, 'lot': True, 'valet': False}",
      "DogsAllowed": "False"
    },
    "categories": "Fitness & Instruction, Active Life, Yoga",
    "hours": {
      "Monday": "16:0-23:0",
      "Tuesday": "16:0-23:0",
      "Wednesday": "16:0-23:0",
      "Thursday": "16:0-23:0",
      "Friday": "16:0-21:30",
      "Saturday": "15:30-17:30",
      "Sunday": "17:30-19:45"
    }
  },
  {
    "business_id": "giC3pVVFxCRR89rApqklyw",
    "name": "Knot Salon",
    "address": "4848 E Cactus Rd, Ste 100",
    "city": "Scottsdale",
    "state": "AZ",
    "postal_code": "85254",
    "latitude": 33.600071,
    "longitude": -111.977371,
    "stars": 5.0,
    "review_count": 5,
    "is_open": 1,
    "attributes": {
      "BusinessAcceptsCreditCards": "True",
      "BusinessParking": "{'garage': False, 'street': False, 'validated': False, 'lot': False, 'valet': False}",
      "GoodForKids": "True",
      "RestaurantsPriceRange2": "2",
      "ByAppointmentOnly": "True"
    },
    "categories": "Hair Stylists, Beauty & Spas, Hair Salons, Men's Hair Salons",
    "hours": {
      "Monday": "0:0-0:0",
      "Tuesday": "9:0-19:0",
      "Wednesday": "9:0-17:0",
      "Thursday": "9:0-19:0",
      "Friday": "8:0-17:0",
      "Saturday": "8:0-17:0"
    }
  },
  {
    "business_id": "PZ-LZzSlhSe9utkQYU8pFg",
    "name": "Carluccio's Tivoli Gardens",
    "address": "1775 E Tropicana Ave, Ste 29",
    "city": "Las Vegas",
    "state": "NV",
    "postal_code": "89119",
    "latitude": 36.1000163,
    "longitude": -115.1285285,
    "stars": 4.0,
    "review_count": 40,
    "is_open": 0,
    "attributes": {
      "OutdoorSeating": "False",
      "BusinessAcceptsCreditCards": "True",
      "RestaurantsDelivery": "False",
      "RestaurantsReservations": "True",
      "RestaurantsAttire": "'casual'",
      "Ambience": "{'romantic': True, 'intimate': False, 'touristy': False, 'hipster': False, 'divey': False, 'classy': True, 'trendy': False, 'upscale': False, 'casual': False}",
      "HasTV": "False",
      "BYOBCorkage": "'no'",
      "NoiseLevel": "u'quiet'",
      "RestaurantsTakeOut": "True",
      "RestaurantsPriceRange2": "2",
      "RestaurantsGoodForGroups": "True",
      "WiFi": "u'no'",
      "Caters": "True",
      "GoodForKids": "True",
      "Alcohol": "u'full_bar'",
      "BusinessParking": "{'garage': False, 'street': False, 'validated': False, 'lot': True, 'valet': False}"
    },
    "categories": "Restaurants, Italian",
    "hours": null
  },
  {
    "business_id": "nh_kQ16QAoXWwqZ05MPfBQ",
    "name": "Myron Hensel Photography",
    "address": "",
    "city": "Las Vegas",
    "state": "NV",
    "postal_code": "89121",
    "latitude": 36.1165487,
    "longitude": -115.0881146,
    "stars": 5.0,
    "review_count": 21,
    "is_open": 1,
    "attributes": {
      "BusinessAcceptsCreditCards": "True"
    },
    "categories": "Event Planning & Services, Photographers, Professional Services",
    "hours": {
      "Monday": "0:0-0:0",
      "Tuesday": "0:0-0:0",
      "Wednesday": "0:0-0:0",
      "Thursday": "0:0-0:0",
      "Friday": "0:0-0:0",
      "Saturday": "0:0-0:0",
      "Sunday": "0:0-0:0"
    }
  },
  {
    "business_id": "zSpQmEBvRe3IhTUlMSA6HQ",
    "name": "Totum Life Science",
    "address": "445 King Street W, Suite 101",
    "city": "Toronto",
    "state": "ON",
    "postal_code": "M5V 1K4",
    "latitude": 43.6450415,
    "longitude": -79.3957986,
    "stars": 4.0,
    "review_count": 23,
    "is_open": 1,
    "attributes": {
      "AcceptsInsurance": "True",
      "ByAppointmentOnly": "False",
      "GoodForKids": "False",
      "WheelchairAccessible": "False"
    },
    "categories": "Trainers, Health & Medical, Active Life, Physical Therapy, Gyms, Fitness & Instruction",
    "hours": {
      "Monday": "6:0-22:0",
      "Tuesday": "6:0-22:0",
      "Wednesday": "6:0-22:0",
      "Thursday": "6:0-22:0",
      "Friday": "6:0-22:0",
      "Saturday": "8:0-18:0",
      "Sunday": "9:0-18:0"
    }
  },
  {
    "business_id": "dFMxzHygTy6F873843dHAA",
    "name": "Fremont Arcade",
    "address": "450 Fremont St, Ste 179",
    "city": "Las Vegas",
    "state": "NV",
    "postal_code": "89101",
    "latitude": 36.169993,
    "longitude": -115.140685,
    "stars": 4.5,
    "review_count": 38,
    "is_open": 1,
    "attributes": {
      "GoodForKids": "True"
    },
    "categories": "Arcades, Arts & Entertainment",
    "hours": {
      "Monday": "11:0-0:0",
      "Tuesday": "11:0-0:0",
      "Wednesday": "11:0-0:0",
      "Thursday": "11:0-0:0",
      "Friday": "11:0-1:0",
      "Saturday": "11:0-1:0",
      "Sunday": "11:0-0:0"
    }
  },
  {
    "business_id": "lxnuq9wJiwLOPJ4uZU2ljg",
    "name": "Las Vegas Motorcars",
    "address": "3650 N 5th, Ste 100",
    "city": "North Las Vegas",
    "state": "NV",
    "postal_code": "89032",
    "latitude": 36.2258515,
    "longitude": -115.1328004,
    "stars": 3.5,
    "review_count": 3,
    "is_open": 1,
    "attributes": {
      "BusinessAcceptsCreditCards": "True"
    },
    "categories": "Automotive, Car Dealers",
    "hours": {
      "Monday": "9:0-18:0",
      "Tuesday": "9:0-18:0",
      "Wednesday": "9:0-18:0",
      "Thursday": "9:0-18:0",
      "Friday": "9:0-18:0",
      "Saturday": "10:0-17:0"
    }
  },
  {
    "business_id": "KWywu2tTEPWmR9JnBc0WyQ",
    "name": "Hunk Mansion",
    "address": "6007 Dean Martin Dr",
    "city": "Las Vegas",
    "state": "NV",
    "postal_code": "89118",
    "latitude": 36.0801679,
    "longitude": -115.1827558,
    "stars": 4.0,
    "review_count": 107,
    "is_open": 1,
    "attributes": {
      "BikeParking": "False",
      "Ambience": "{'romantic': False, 'intimate': True, 'classy': False, 'hipster': False, 'divey': False, 'touristy': False, 'trendy': False, 'upscale': False, 'casual': False}",
      "RestaurantsPriceRange2": "2",
      "HasTV": "True",
      "Music": "{'dj': True, 'background_music': False, 'no_music': False, 'jukebox': False, 'live': False, 'video': False, 'karaoke': False}",
      "RestaurantsGoodForGroups": "True",
      "OutdoorSeating": "True",
      "RestaurantsReservations": "True",
      "BusinessParking": "{'garage': False, 'street': False, 'validated': False, 'lot': True, 'valet': True}",
      "GoodForKids": "False",
      "Alcohol": "u'full_bar'",
      "NoiseLevel": "'loud'",
      "BusinessAcceptsCreditCards": "True",
      "GoodForDancing": "True"
    },
    "categories": "Nightlife, Arts & Entertainment, Bars, Strip Clubs, Adult Entertainment, Dance Clubs",
    "hours": {
      "Thursday": "19:30-2:0",
      "Friday": "19:30-3:0",
      "Saturday": "19:30-3:0",
      "Sunday": "19:30-2:0"
    }
  },
  {
    "business_id": "1RHY4K3BD22FK7Cfftn8Mg",
    "name": "Marathon Diner",
    "address": "Center Core - Food Court, Fl 3, Pittsburgh International Airport",
    "city": "Pittsburgh",
    "state": "PA",
    "postal_code": "15231",
    "latitude": 40.4961769456,
    "longitude": -80.2460112364,
    "stars": 4.0,
    "review_count": 35,
    "is_open": 1,
    "attributes": {
      "RestaurantsTakeOut": "True",
      "BusinessParking": "{'garage': False, 'street': False, 'validated': False, 'lot': False, 'valet': False}",
      "Ambience": "{'touristy': False, 'hipster': False, 'romantic': False, 'divey': False, 'intimate': False, 'trendy': False, 'upscale': False, 'classy': False, 'casual': False}",
      "RestaurantsDelivery": "False",
      "RestaurantsReservations": "False",
      "BusinessAcceptsCreditCards": "True",
      "RestaurantsPriceRange2": "1",
      "RestaurantsGoodForGroups": "True",
      "DriveThru": "False",
      "GoodForKids": "True",
      "GoodForMeal": "{'dessert': False, 'latenight': False, 'lunch': False, 'dinner': False, 'brunch': False, 'breakfast': False}",
      "HasTV": "False",
      "OutdoorSeating": "False"
    },
    "categories": "Sandwiches, Salad, Restaurants, Burgers, Comfort Food",
    "hours": null
  },
  {
    "business_id": "BsMdebN4nZySpGTfXr-7yg",
    "name": "Maurices",
    "address": "7981 W Tropical Pkwy, Ste 120",
    "city": "Las Vegas",
    "state": "NV",
    "postal_code": "89149",
    "latitude": 36.2715455,
    "longitude": -115.2644839,
    "stars": 5.0,
    "review_count": 4,
    "is_open": 1,
    "attributes": {
      "BusinessAcceptsCreditCards": "True",
      "BusinessParking": "{'garage': False, 'street': False, 'validated': False, 'lot': False, 'valet': False}",
      "RestaurantsPriceRange2": "2",
      "BikeParking": "True"
    },
    "categories": "Women's Clothing, Shopping, Accessories, Fashion, Shoe Stores",
    "hours": {
      "Monday": "10:0-20:0",
      "Tuesday": "10:0-20:0",
      "Wednesday": "10:0-20:0",
      "Thursday": "10:0-20:0",
      "Friday": "10:0-20:0",
      "Saturday": "10:0-20:0",
      "Sunday": "11:0-18:0"
    }
  }
]